[{"id":2,"title":"Play cards with strangers","description":"Ask a group of strangers to join you for a game of cards.","duration":15,"difficulty":"medium","points":30,"lat":"52.358172","lng":"4.868300","createdAt":"2016-12-02T14:50:08.779Z","updatedAt":"2016-12-02T14:50:08.779Z","completes":[]},{"id":3,"title":"Smoke some weed","description":"Go to a coffeeshop and buy some weed","duration":100,"difficulty":"hard","points":50,"lat":"52.372826","lng":"4.895622","createdAt":"2016-12-02T14:50:08.779Z","updatedAt":"2016-12-02T14:50:08.779Z","completes":[]},{"id":4,"title":"Take the Ferry","description":"Take the ferry to the opposite of the IJ. Enjoy the wind in your hair and the view over Amsterdam!","duration":30,"difficulty":"easy","points":10,"lat":"52.381627","lng":"4.901176","createdAt":"2016-12-02T14:50:09.103Z","updatedAt":"2016-12-02T14:50:09.103Z","completes":[]},{"id":5,"title":"Go for a swim","description":"A perfect goal for those hot summer days: why don't you just jump in the cannel and leave everybody on the quay astonished! Just don't forget your towel...","duration":5,"difficulty":"easy","points":40,"lat":"52.374404","lng":"4.885953","createdAt":"2016-12-02T14:50:09.424Z","updatedAt":"2016-12-02T14:50:09.424Z","completes":[]},{"id":6,"title":"Run the stairs of Nemo","description":"Start at the bottom, then run as fast as you can up the stairs of Nemo. Take a picture when you are at the top.","duration":5,"difficulty":"easy","points":10,"lat":"52.374336","lng":"4.912338","createdAt":"2016-12-02T14:52:37.405Z","updatedAt":"2016-12-02T14:52:37.405Z","completes":[]},{"id":7,"title":"Play cards with strangers","description":"Ask a group of strangers to join you for a game of cards.","duration":15,"difficulty":"medium","points":30,"lat":"52.358172","lng":"4.868300","createdAt":"2016-12-02T14:52:37.774Z","updatedAt":"2016-12-02T14:52:37.774Z","completes":[]},{"id":8,"title":"Smoke some weed","description":"Go to a coffeeshop and buy some weed","duration":100,"difficulty":"hard","points":50,"lat":"52.372826","lng":"4.895622","createdAt":"2016-12-02T14:52:37.775Z","updatedAt":"2016-12-02T14:52:37.775Z","completes":[]},{"id":9,"title":"Take the Ferry","description":"Take the ferry to the opposite of the IJ. Enjoy the wind in your hair and the view over Amsterdam!","duration":30,"difficulty":"easy","points":10,"lat":"52.381627","lng":"4.901176","createdAt":"2016-12-02T14:52:38.128Z","updatedAt":"2016-12-02T14:52:38.128Z","completes":[]},{"id":10,"title":"Go for a swim","description":"A perfect goal for those hot summer days: why don't you just jump in the cannel and leave everybody on the quay astonished! Just don't forget your towel...","duration":5,"difficulty":"easy","points":40,"lat":"52.374404","lng":"4.885953","createdAt":"2016-12-02T14:52:38.422Z","updatedAt":"2016-12-02T14:52:38.422Z","completes":[]},{"id":11,"title":"Take a picture with the bobbleheads","description":"If you say Rembrandtparc, you say “two giant dogs”. These dogs, closely resembling your typical bobblehead, always watch over its visitors.","duration":5,"difficulty":"easy","points":10,"lat":"52.364195","lng":"4.847546","createdAt":"2016-12-02T14:53:34.456Z","updatedAt":"2016-12-02T14:53:34.456Z","completes":[]}]