[{"id":1,"title":"Run the stairs of Nemo","description":"Start at the bottom, then run as fast as you can up the stairs of Nemo. Take a picture when you are at the top.","duration":5,"difficulty":"easy","points":10,"lat":"52.374336","lng":"4.912338","createdAt":"2016-12-04T12:53:57.484Z","updatedAt":"2016-12-04T12:53:57.484Z","completes":[]},{"id":2,"title":"Go for a swim","description":"A perfect goal for those hot summer days: why don't you just jump in the cannel and leave everybody on the quay astonished! Just don't forget your towel...","duration":5,"difficulty":"easy","points":40,"lat":"52.374404","lng":"4.885953","createdAt":"2016-12-04T12:53:57.484Z","updatedAt":"2016-12-04T12:53:57.484Z","completes":[]},{"id":7,"title":"Go to the other B. building","description":"Creativity can simply not be held in one place... so go check out the other B. building, while going for a nice walk!","duration":15,"difficulty":"easy","points":10,"lat":"52.342633","lng":"4.827949","createdAt":"2016-12-04T12:53:57.486Z","updatedAt":"2016-12-04T12:53:57.486Z","completes":[]},{"id":8,"title":"Do Parcours","description":"In this nice area, locked-off yards and parcs run between the streets. Jump the fence, run across the yard, and jump the fence again: you're now doing parcours!","duration":15,"difficulty":"medium","points":20,"lat":"52.339351","lng":"4.894810","createdAt":"2016-12-04T12:53:57.486Z","updatedAt":"2016-12-04T12:53:57.486Z","completes":[]},{"id":3,"title":"Offer Bram a traineeship","description":"A true perfectionist, great eye for design and easy going to work with: Hiring Bram means a guarantee win of the game!","duration":262974,"difficulty":"easy","points":1000000,"lat":"52.341167","lng":"4.822733","createdAt":"2016-12-04T12:53:57.485Z","updatedAt":"2016-12-04T12:53:57.485Z","completes":[]},{"id":6,"title":"Play an arcade game","description":"The TonTon Club is as close as an arcade hall as Amsterdam has, full of goofy Japanese games, air hockey and mega tetris. Play a game (any game!) and collect your points!","duration":15,"difficulty":"medium","points":30,"lat":"52.386027","lng":"4.866168","createdAt":"2016-12-04T12:53:57.486Z","updatedAt":"2016-12-04T12:53:57.486Z","completes":[]},{"id":5,"title":"Take a picture with the bobbleheads","description":"If you say Rembrandtparc, you say “two giant dogs”. These dogs, closely resembling your typical bobblehead, always watch over its visitors.","duration":5,"difficulty":"easy","points":10,"lat":"52.364195","lng":"4.847546","createdAt":"2016-12-04T12:53:57.485Z","updatedAt":"2016-12-04T12:53:57.485Z","completes":[]},{"id":4,"title":"Offer Selma a traineeship","description":"Accurate, great team member and always eager to learn: Hiring Selma means a guarantee win of the game!","duration":262974,"difficulty":"easy","points":1000001,"lat":"52.341094","lng":"4.824170","createdAt":"2016-12-04T12:53:57.485Z","updatedAt":"2016-12-04T12:53:57.485Z","completes":[]},{"id":9,"title":"Go to the beach","description":"The beach? Yes, Amsterdam has multiple little city beaches! One of the lesser known ones is at the Sloterplas. Discover it yourself and go for a swim!","duration":10,"difficulty":"medium","points":40,"lat":"52.371653","lng":"4.822276","createdAt":"2016-12-04T12:53:57.486Z","updatedAt":"2016-12-04T12:53:57.486Z","completes":[]},{"id":10,"title":"Register","description":"Right here, right in the middle of Amsterdam, is where you collected your first 5 points and it's where your journey begins. Let's Explorify!","duration":1,"difficulty":"easy","points":5,"lat":"52.367438","lng":"4.895367","createdAt":"2016-12-04T12:53:57.487Z","updatedAt":"2016-12-04T12:53:57.487Z","completes":[]},{"id":11,"title":"Take the elevator at the library","description":"The public library provides a beautiful view from the top. Go there and just look at the Amsterdam Skyline.","duration":15,"difficulty":"easy","points":10,"lat":"52.375847","lng":"4.908377","createdAt":"2016-12-04T12:53:57.843Z","updatedAt":"2016-12-04T12:53:57.843Z","completes":[]},{"id":14,"title":"Take the Ferry","description":"Take the ferry to the opposite of the IJ. Enjoy the wind in your hair and the view over Amsterdam!","duration":30,"difficulty":"easy","points":10,"lat":"52.381627","lng":"4.901176","createdAt":"2016-12-04T12:53:58.468Z","updatedAt":"2016-12-04T12:53:58.468Z","completes":[]}]